[
{
	"name": "CUMBERLAND, VANCOUVER IS",
	"state": "BRITISH COLUMBIA",
	"latitude": 49.61867740000001,
	"longitude": -125.0312578,
	"count": 0
},
{
	"name": "HAMILTON FIRE HALL",
	"state": "MONTANA",
	"latitude": 0,
	"longitude": 0,
	"count": 0
},
{
	"name": "KALISPELL JAIL",
	"state": "MONTANA",
	"latitude": 0,
	"longitude": 0,
	"count": 0
},
{
	"name": "KALISPELL MEDICAL EQUIPMENT",
	"state": "MONTANA",
	"latitude": 0,
	"longitude": 0,
	"count": 0
},
{
	"name": "STEVENSVILLE HOTEL",
	"state": "MONTANA",
	"latitude": 0,
	"longitude": 0,
	"count": 0
},
{
	"name": "MOSCOW DOWNTOWN",
	"state": "IDAHO",
	"latitude": 0,
	"longitude": 0,
	"count": 0
},
{
	"name": "LAPWAI OFFICERS QUARTER",
	"state": "IDAHO",
	"latitude": 0,
	"longitude": 0,
	"count": 0
},
{
	"name": "SUMAS OLD CUSTOMS",
	"state": "WASHINGTON",
	"latitude": 0,
	"longitude": 0,
	"count": 0
},
{
	"name": "NORTHERN STATE HOSPITAL",
	"state": "WASHINGTON",
	"latitude": 0,
	"longitude": 0,
	"count": 0
},
{
	"name": "TOTEM LAKE",
	"state": "WASHINGTON",
	"latitude": 0,
	"longitude": 0,
	"count": 0
},
{
	"name": "SNOHOMISH CARNEGIE LIBRARY",
	"state": "WASHINGTON",
	"latitude": 0,
	"longitude": 0,
	"count": 0
},
{
	"name": "MONROE WAGNER SCHOOL",
	"state": "WASHINGTON",
	"latitude": 0,
	"longitude": 0,
	"count": 0
},
{
	"name": "MONROE SD ADMIN. BUILDING",
	"state": "WASHINGTON",
	"latitude": 0,
	"longitude": 0,
	"count": 0
},
{
	"name": "OLD ELLENSBURG HOSPITAL",
	"state": "WASHINGTON",
	"latitude": 0,
	"longitude": 0,
	"count": 0
},
{
	"name": "YAKIMA HERALD NEWS",
	"state": "WASHINGTON",
	"latitude": 0,
	"longitude": 0,
	"count": 0
},
{
	"name": "OLD PARKER HEIGTHS SCHOOL",
	"state": "WASHINGTON",
	"latitude": 0,
	"longitude": 0,
	"count": 0
},
{
	"name": "SELLECK OLD SCHOOLHOUSE",
	"state": "WASHINGTON",
	"latitude": 0,
	"longitude": 0,
},
	"count": 0
{
	"name": "SELLECK OLD SCHOOLHOUSE",
	"state": "WASHINGTON",
	"latitude": 0,
	"longitude": 0,
	"count": 0
},
{
	"name": "OLYMPIA RESIDENCES",
	"state": "WASHINGTON",
	"latitude": 0,
	"longitude": 0,
	"count": 0
},
{
	"name": "CENTRALIA DOWNTOWN",
	"state": "WASHINGTON",
	"latitude": 0,
	"longitude": 0,
	"count": 0
},
{
	"name": "BATTLEGROUND BIEKER RES.",
	"state": "WASHINGTON",
	"latitude": 0,
	"longitude": 0,
	"count": 0
},
{
	"name": "CAMAS NE 6",
	"state": "WASHINGTON",
	"latitude": 0,
	"longitude": 0,
	"count": 0
},
{
	"name": "CAMAS RESIDENCE",
	"state": "WASHINGTON",
	"latitude": 0,
	"longitude": 0,
	"count": 0
},
{
	"name": "RAINIER OLD HALL",
	"state": "OREGON",
	"latitude": 0,
	"longitude": 0,
	"count": 0
},
{
	"name": "RAINEER CARPET ONE",
	"state": "OREGON",
	"latitude": 0,
	"longitude": 0,
	"count": 0
},
{
	"name": "TILLAMOOK WILSON SCHOOL",
	"state": "OREGON",
	"latitude": 0,
	"longitude": 0,
	"count": 0
},
{
	"name": "PORTLAND  SE HAWTHORNE AVE",
	"state": "OREGON",
	"latitude": 0,
	"longitude": 0,
	"count": 0
},
{
	"name": "PORTLAND MACKINS AUTO BODY",
	"state": "OREGON",
	"latitude": 0,
	"longitude": 0,
	"count": 0
},
{
	"name": "NE PORTLAND ON COLUMBIA AVE",
	"state": "OREGON",
	"latitude": 0,
	"longitude": 0,
	"count": 0
},
{
	"name": "PORTLAND MT. TABOR APTS",
	"state": "OREGON",
	"latitude": 0,
	"longitude": 0,
	"count": 0
},
{
	"name": "PORTLAND CHAPMAN",
	"state": "OREGON",
	"latitude": 0,
	"longitude": 0,
	"count": 0
},
{
	"name": "PORTLAND DUNIWAY WOOD BOX",
	"state": "OREGON",
	"latitude": 0,
	"longitude": 0,
	"count": 0
},
{
	"name": "OREGON CITY across from HS",
	"state": "OREGON",
	"latitude": 0,
	"longitude": 0,
	"count": 0
},
{
	"name": "OREGON CITY HIGH SCHOOL",
	"state": "OREGON",
	"latitude": 0,
	"longitude": 0,
	"count": 0
},
{
	"name": "OREGON CITY DOWNTOWN",
	"state": "OREGON",
	"latitude": 0,
	"longitude": 0,
	"count": 0
},
{
	"name": "OREGON CITY KINGS ACEDEMY",
	"state": "OREGON",
	"latitude": 0,
	"longitude": 0,
	"count": 0
},
{
	"name": "LA GRANDE FOLEY BLDG.",
	"state": "OREGON",
	"latitude": 0,
	"longitude": 0,
	"count": 0
},
{
	"name": "UNION HIGH SCHOOL",
	"state": "OREGON",
	"latitude": 0,
	"longitude": 0,
	"count": 0
},
{
	"name": "MT ANGEL JFK HIGH SCHOOL",
	"state": "OREGON",
	"latitude": 0,
	"longitude": 0,
	"count": 0
},
{
	"name": "CORVALLIS WHITESIDE THEATRE",
	"state": "OREGON",
	"latitude": 0,
	"longitude": 0,
	"count": 0
},
{
	"name": "CORVALLIS WIEGAND HALL",
	"state": "OREGON",
	"latitude": 0,
	"longitude": 0,
	"count": 0
},
{
	"name": "CORVALLIS FRAT HOUSE",
	"state": "OREGON",
	"latitude": 0,
	"longitude": 0,
	"count": 0
},
{
	"name": "ALBANY FIRE STATION",
	"state": "OREGON",
	"latitude": 0,
	"longitude": 0,
	"count": 0
},
{
	"name": "LEBANON HOTEL",
	"state": "OREGON",
	"latitude": 0,
	"longitude": 0,
	"count": 0
},
{
	"name": "LEBANON 2ND/GRANT",
	"state": "OREGON",
	"latitude": 0,
	"longitude": 0,
	"count": 0
},
{
	"name": "EUGENE UO AGATE HALL",
	"state": "OREGON",
	"latitude": 0,
	"longitude": 0,
	"count": 0
},
{
	"name": "EUGENE SMITH FAMILY BOOKS",
	"state": "OREGON",
	"latitude": 0,
	"longitude": 0,
	"count": 0
},
{
	"name": "ROSEBURG UVAA CLAY PLACE",
	"state": "OREGON",
	"latitude": 0,
	"longitude": 0,
	"count": 0
},
{
	"name": "ROSEBURG RESIDENCE",
	"state": "OREGON",
	"latitude": 0,
	"longitude": 0,
	"count": 0
},
{
	"name": "BEND BOYS AND GIRLS CLUB",
	"state": "OREGON",
	"latitude": 0,
	"longitude": 0,
	"count": 0
},
{
	"name": "BEND OLD LIBRARY",
	"state": "OREGON",
	"latitude": 0,
	"longitude": 0,
	"count": 0
},
{
	"name": "BEND CHRISTMAS PRESENCE",
	"state": "OREGON",
	"latitude": 0,
	"longitude": 0,
	"count": 0
},
{
	"name": "MEDFORD VOORHIES MANSON",
	"state": "OREGON",
	"latitude": 0,
	"longitude": 0,
	"count": 0
},
{
	"name": "LAKEVIEW 1ST PRESBYTERIAN",
	"state": "OREGON",
	"latitude": 0,
	"longitude": 0,
	"count": 0
},
{
	"name": "HUMBOLDT CO REDWOOD SNAG",
	"state": "CALIFORNIA",
	"latitude": 0,
	"longitude": 0,
	"count": 0
},
{
	"name": "ARCATA 7TH AND A STREET",
	"state": "CALIFORNIA",
	"latitude": 0,
	"longitude": 0,
	"count": 0
},
{
	"name": "ARCATA 13TH AND I STREET",
	"state": "CALIFORNIA",
	"latitude": 0,
	"longitude": 0,
	"count": 0
},
{
	"name": "GARBERVILLE SPROWL CREEK RD",
	"state": "CALIFORNIA",
	"latitude": 0,
	"longitude": 0,
	"count": 0
},
{
	"name": "SANTA ROSA RES.",
	"state": "CALIFORNIA",
	"latitude": 0,
	"longitude": 0,
	"count": 0
},
{
	"name": "SEBASTOPOL HIGH AND CALDER",
	"state": "CALIFORNIA",
	"latitude": 0,
	"longitude": 0,
	"count": 0
},
{
	"name": "HEALDSBURG RIO LINDO",
	"state": "CALIFORNIA",
	"latitude": 0,
	"longitude": 0,
	"count": 0
},
{
	"name": "SF NORTH BAY MCNEAR BRICK",
	"state": "CALIFORNIA",
	"latitude": 0,
	"longitude": 0,
	"count": 0
},
{
	"name": "SAN FRANCISCO PRESIDO",
	"state": "CALIFORNIA",
	"latitude": 0,
	"longitude": 0,
	"count": 0
},
{
	"name": "LOS ANGELES CHESTER WILLIAMS",
	"state": "CALIFORNIA",
	"latitude": 0,
	"longitude": 0,
	"count": 0
},
{
	"name": "SAN DIEGO CHURCH LOFTS",
	"state": "CALIFORNIA",
	"latitude": 0,
	"longitude": 0,
	"count": 0
}

]